{
  "schemaVersion": 3,
  "updatedOn": "2026-06-15",
  "defaultTravelMiles": 35,
  "travelRadiusOptions": [
    20,
    35,
    50
  ],
  "focusArea": "Family law and legal aid",
  "chambers": [
    {
      "id": "10kbw",
      "name": "10KBW",
      "website": "https://10kbw.co.uk",
      "email": "clerks@10kbw.co.uk",
      "phone": "020 7353 7742",
      "aliases": [],
      "branches": [
        {
          "name": "London",
          "city": "London",
          "lat": 51.5139,
          "lon": -0.1115,
          "phone": "020 7353 7742",
          "address": "Ground Floor, 10 King's Bench Walk, Temple, London EC4Y 7EB"
        }
      ]
    },
    {
      "id": "12-old-square",
      "name": "12 Old Square",
      "website": "https://12oldsquare.com",
      "email": "clerks@12oldsquare.com",
      "phone": "020 7404 0875",
      "aliases": [
        "12OS"
      ],
      "branches": [
        {
          "name": "London",
          "city": "London",
          "lat": 51.5174,
          "lon": -0.1164,
          "phone": "020 7404 0875",
          "address": "12 Old Square, Lincoln's Inn, London WC2A 3TX"
        }
      ]
    },
    {
      "id": "18-st-john-street",
      "name": "18 St John Street",
      "website": "https://www.18sjs.com",
      "email": "family@18sjs.com",
      "phone": "0161 278 8263",
      "aliases": [],
      "branches": [
        {
          "name": "Manchester",
          "city": "Manchester",
          "lat": 53.4779,
          "lon": -2.2513,
          "phone": "0161 278 8263",
          "address": "18 St John Street Chambers, Manchester M3 4EA"
        }
      ]
    },
    {
      "id": "1gc-family-law",
      "name": "1GC|Family Law",
      "website": "https://1gc.com",
      "email": "clerks@1gc.com",
      "phone": "020 7797 7900",
      "aliases": [],
      "branches": [
        {
          "name": "London",
          "city": "London",
          "lat": 51.517,
          "lon": -0.118,
          "phone": "020 7797 7900",
          "address": "10 Lincoln's Inn Fields, London WC2A 3BP"
        }
      ]
    },
    {
      "id": "2-new-street",
      "name": "2 New Street",
      "website": "https://2newstreet.com",
      "email": "clerks@2newstreet.co.uk",
      "phone": "0116 262 5906",
      "aliases": [],
      "branches": [
        {
          "name": "Leicester",
          "city": "Leicester",
          "lat": 52.6369,
          "lon": -1.1398,
          "phone": "0116 262 5906",
          "address": "2 New Street, Leicester LE1 5NA"
        }
      ]
    },
    {
      "id": "2kbw",
      "name": "2KBW",
      "website": "https://2kbw.com",
      "email": "family@2kbw.com",
      "phone": "023 9283 6880",
      "aliases": [],
      "branches": [
        {
          "name": "Portsmouth",
          "city": "Portsmouth",
          "lat": 50.7963,
          "lon": -1.0928,
          "phone": "023 9283 6880",
          "address": "3 Guildhall Walk, Portsmouth PO1 2RY"
        }
      ]
    },
    {
      "id": "3-bolt-court",
      "name": "3 Bolt Court",
      "website": "https://3boltcourt.com",
      "email": "clerks@3boltcourt.com",
      "phone": "020 3745 3150",
      "aliases": [
        "3BC"
      ],
      "branches": [
        {
          "name": "London",
          "city": "London",
          "lat": 51.5192,
          "lon": -0.1116,
          "phone": "020 3745 3150",
          "address": "First Floor, 34-36 Gray's Inn Road, London WC1X 8HR"
        }
      ]
    },
    {
      "id": "33-bedford-row",
      "name": "33 Bedford Row",
      "website": "https://www.33bedfordrow.co.uk",
      "email": "clerks@33br.co.uk",
      "phone": "020 7242 6476",
      "aliases": [],
      "branches": [
        {
          "name": "London",
          "city": "London",
          "lat": 51.5196,
          "lon": -0.1181,
          "phone": "020 7242 6476",
          "address": "33 Bedford Row, London WC1R 4JH"
        }
      ]
    },
    {
      "id": "39-park-square",
      "name": "39 Park Square",
      "website": "https://39parksquare.com",
      "email": "clerks@39parksquare.com",
      "phone": "0113 245 6633",
      "aliases": [],
      "branches": [
        {
          "name": "Leeds",
          "city": "Leeds",
          "lat": 53.7997,
          "lon": -1.5492,
          "phone": "0113 245 6633",
          "address": "39 Park Square North, Leeds LS1 2NU"
        }
      ]
    },
    {
      "id": "3pb-barristers",
      "name": "3PB Barristers",
      "website": "https://3pb.co.uk",
      "email": "family.clerks@3pb.co.uk",
      "phone": "0330 332 0773",
      "aliases": [],
      "branches": [
        {
          "name": "London",
          "city": "London",
          "lat": 51.5132,
          "lon": -0.1092,
          "phone": "020 7583 8055",
          "address": "3 Paper Buildings, Temple, London EC4Y 7EU"
        },
        {
          "name": "Birmingham",
          "city": "Birmingham",
          "lat": 52.4814,
          "lon": -1.8998,
          "phone": "0121 289 4333",
          "address": "Colmore Building, 20 Colmore Circus, Queensway, Birmingham B4 6AT"
        },
        {
          "name": "Bournemouth",
          "city": "Bournemouth",
          "lat": 50.7228,
          "lon": -1.8595,
          "phone": "01202 292 102",
          "address": "30 Christchurch Road, Bournemouth BH1 3PD"
        },
        {
          "name": "Bristol",
          "city": "Bristol",
          "lat": 51.4533,
          "lon": -2.5901,
          "phone": "0117 928 1520",
          "address": "Royal Talbot House, 2 Victoria Street, Bristol BS1 6BB"
        },
        {
          "name": "Manchester",
          "city": "Manchester",
          "lat": 53.4808,
          "lon": -2.2426,
          "phone": "0161 359 5333",
          "address": "First Floor, 11 York Street, Manchester M2 2AW"
        },
        {
          "name": "Oxford",
          "city": "Oxford",
          "lat": 51.752,
          "lon": -1.2577,
          "phone": "01865 793 736",
          "address": "23 Beaumont Street, Oxford OX1 2NP"
        },
        {
          "name": "Winchester",
          "city": "Winchester",
          "lat": 51.0629,
          "lon": -1.3169,
          "phone": "01962 868 884",
          "address": "4 St Peter Street, Winchester SO23 8BW"
        }
      ]
    },
    {
      "id": "4pb",
      "name": "4 Paper Buildings",
      "website": "https://4pb.com",
      "email": "clerks@4pb.com",
      "phone": "020 7427 5200",
      "aliases": [
        "4PB"
      ],
      "branches": [
        {
          "name": "London",
          "city": "London",
          "lat": 51.5127,
          "lon": -0.1064,
          "phone": "020 7427 5200",
          "address": "4 Paper Buildings, Temple, London EC4Y 7EX"
        }
      ]
    },
    {
      "id": "7-harrington-street",
      "name": "7 Harrington Street",
      "website": "https://7hs.co.uk",
      "email": "family@7hs.co.uk",
      "phone": "0151 242 0707",
      "aliases": [],
      "branches": [
        {
          "name": "Liverpool",
          "city": "Liverpool",
          "lat": 53.4094,
          "lon": -2.9877,
          "phone": "0151 242 0707",
          "address": "7 Harrington Street, Liverpool L2 9YH"
        }
      ]
    },
    {
      "id": "albion-chambers",
      "name": "Albion Chambers",
      "website": "https://albionchambers.co.uk",
      "email": "family@albionchambers.co.uk",
      "phone": "0117 927 2144",
      "aliases": [],
      "branches": [
        {
          "name": "Bristol",
          "city": "Bristol",
          "lat": 51.4536,
          "lon": -2.5916,
          "phone": "0117 927 2144",
          "address": "Albion Chambers, Broad Street, Bristol BS1 1DR"
        }
      ]
    },
    {
      "id": "atlantic-chambers",
      "name": "Atlantic Chambers",
      "website": "https://atlanticchambers.co.uk",
      "email": "clerks@atlanticchambers.co.uk",
      "phone": "0151 236 4421",
      "aliases": [],
      "branches": [
        {
          "name": "Liverpool",
          "city": "Liverpool",
          "lat": 53.4079,
          "lon": -2.9895,
          "phone": "0151 236 4421",
          "address": "4-6 Cook Street, Liverpool L2 9QU"
        }
      ]
    },
    {
      "id": "becket-chambers",
      "name": "Becket Chambers",
      "website": "https://becket-chambers.co.uk",
      "email": "clerks@becket-chambers.co.uk",
      "phone": "01227 786331",
      "aliases": [],
      "branches": [
        {
          "name": "Canterbury",
          "city": "Canterbury",
          "lat": 51.2921,
          "lon": 1.0647,
          "phone": "01227 786331",
          "address": "Canterbury Innovation Centre, University Road, Canterbury CT2 7FG"
        }
      ]
    },
    {
      "id": "broadway-house-chambers",
      "name": "Broadway House Chambers",
      "website": "https://broadwayhouse.co.uk",
      "email": "clerks@broadwayhouse.co.uk",
      "phone": "01274 722560",
      "aliases": [],
      "branches": [
        {
          "name": "Bradford",
          "city": "Bradford",
          "lat": 53.7941,
          "lon": -1.7467,
          "phone": "01274 722560",
          "address": "Devere House, Vicar Lane, Little Germany, Bradford BD1 5AH"
        },
        {
          "name": "Leeds",
          "city": "Leeds",
          "lat": 53.7967,
          "lon": -1.5489,
          "phone": "0113 246 2600",
          "address": "1 City Square, Leeds LS1 2ES"
        }
      ]
    },
    {
      "id": "central-chambers",
      "name": "Central Chambers",
      "website": "https://centralchambers.co.uk",
      "email": "clerks@centralchambers.co.uk",
      "phone": "0161 236 1133",
      "aliases": [],
      "branches": [
        {
          "name": "Manchester",
          "city": "Manchester",
          "lat": 53.4798,
          "lon": -2.2419,
          "phone": "0161 236 1133",
          "address": "Chancery Place, 50 Brown Street, Manchester M2 2JG"
        }
      ]
    },
    {
      "id": "coram-chambers",
      "name": "Coram Chambers",
      "website": "https://coramchambers.co.uk",
      "email": "info@coramchambers.co.uk",
      "phone": "020 7092 3700",
      "aliases": [],
      "branches": [
        {
          "name": "London",
          "city": "London",
          "lat": 51.5177,
          "lon": -0.1183,
          "phone": "020 7092 3700",
          "address": "9-11 Fulwood Place, London WC1V 6HG"
        }
      ]
    },
    {
      "id": "cornwall-street-chambers",
      "name": "Cornwall Street Chambers",
      "website": "https://cornwallstreet.co.uk",
      "email": "family@cornwallstreet.co.uk",
      "phone": "0121 233 7500",
      "aliases": [],
      "branches": [
        {
          "name": "Birmingham",
          "city": "Birmingham",
          "lat": 52.4802,
          "lon": -1.9014,
          "phone": "0121 233 7500",
          "address": "Christchurch House, 30 Waterloo Street, Birmingham B2 5TJ"
        }
      ]
    },
    {
      "id": "deans-court-chambers",
      "name": "Deans Court Chambers",
      "website": "https://deanscourt.co.uk",
      "email": "familyclerks@deanscourt.co.uk",
      "phone": "0161 214 6000",
      "aliases": [],
      "branches": [
        {
          "name": "Manchester",
          "city": "Manchester",
          "lat": 53.478,
          "lon": -2.2516,
          "phone": "0161 214 6000",
          "address": "24 St John Street, Manchester M3 4DF"
        }
      ]
    },
    {
      "id": "dere-street-barristers",
      "name": "Dere Street Barristers",
      "website": "https://derestreet.co.uk",
      "email": "clerks@derestreet.co.uk",
      "phone": "0344 335 1551",
      "aliases": [],
      "branches": [
        {
          "name": "Newcastle upon Tyne",
          "city": "Newcastle upon Tyne",
          "lat": 54.9697,
          "lon": -1.6043,
          "phone": "0344 335 1551",
          "address": "33 Broad Chare, Newcastle upon Tyne NE1 3DQ"
        },
        {
          "name": "York",
          "city": "York",
          "lat": 53.957,
          "lon": -1.0903,
          "phone": "01904 620082",
          "address": "14 Toft Green, York YO1 6JT"
        },
        {
          "name": "Middlesbrough",
          "city": "Middlesbrough",
          "lat": 54.5745,
          "lon": -1.2308,
          "phone": "01642 208989",
          "address": "Ground Floor, 2 Centre Square, Middlesbrough TS1 2BF"
        }
      ]
    },
    {
      "id": "east-anglian-chambers",
      "name": "East Anglian Chambers",
      "website": "https://ealaw.co.uk",
      "email": "clerks@ealaw.co.uk",
      "phone": "01473 214481",
      "aliases": [],
      "branches": [
        {
          "name": "Ipswich",
          "city": "Ipswich",
          "lat": 52.0594,
          "lon": 1.1556,
          "phone": "01473 214481",
          "address": "5 Museum Street, Ipswich IP1 1HQ"
        },
        {
          "name": "Norwich",
          "city": "Norwich",
          "lat": 52.6309,
          "lon": 1.3013,
          "phone": "01603 617351",
          "address": "4 The Close, Norwich NR1 4DH"
        },
        {
          "name": "Chelmsford",
          "city": "Chelmsford",
          "lat": 51.7282,
          "lon": 0.466,
          "phone": "01245 215660",
          "address": "140 New London Road, Chelmsford CM2 0AW"
        }
      ]
    },
    {
      "id": "exchange-chambers",
      "name": "Exchange Chambers",
      "website": "https://exchangechambers.co.uk",
      "email": "familyclerks@exchangechambers.co.uk",
      "phone": "0161 833 2722",
      "aliases": [],
      "branches": [
        {
          "name": "Manchester",
          "city": "Manchester",
          "lat": 53.4788,
          "lon": -2.249,
          "phone": "0161 833 2722",
          "address": "201 Deansgate, Manchester M3 3NW"
        },
        {
          "name": "Liverpool",
          "city": "Liverpool",
          "lat": 53.4079,
          "lon": -2.9903,
          "phone": "0151 236 7747",
          "address": "1 Exchange Flags, Liverpool L2 3YL"
        },
        {
          "name": "Leeds",
          "city": "Leeds",
          "lat": 53.7978,
          "lon": -1.5494,
          "phone": "0113 203 1970",
          "address": "Oxford House, Oxford Row, Leeds LS1 3BE"
        }
      ]
    },
    {
      "id": "fenners-chambers",
      "name": "Fenners Chambers",
      "website": "https://fennerschambers.com",
      "email": "clerks@fennerschambers.com",
      "phone": "01223 368761",
      "aliases": [],
      "branches": [
        {
          "name": "Cambridge",
          "city": "Cambridge",
          "lat": 52.2113,
          "lon": 0.1078,
          "phone": "01223 368761",
          "address": "3 Madingley Road, Cambridge CB3 0EE"
        }
      ]
    },
    {
      "id": "fountain-chambers",
      "name": "Fountain Chambers",
      "website": "https://fountainchambers.co.uk",
      "email": "clerks@fountainchambers.co.uk",
      "phone": "01642 804040",
      "aliases": [],
      "branches": [
        {
          "name": "Middlesbrough",
          "city": "Middlesbrough",
          "lat": 54.5742,
          "lon": -1.235,
          "phone": "01642 804040",
          "address": "Cleveland Business Centre, 1 Watson Street, Middlesbrough TS1 2RQ"
        }
      ]
    },
    {
      "id": "fourteen",
      "name": "Fourteen",
      "website": "https://fourteen.co.uk",
      "email": "clerks@fourteen.co.uk",
      "phone": "020 7242 0858",
      "aliases": [
        "14 Gray's Inn Square"
      ],
      "branches": [
        {
          "name": "London",
          "city": "London",
          "lat": 51.5185,
          "lon": -0.1152,
          "phone": "020 7242 0858",
          "address": "14 Gray's Inn Square, London WC1R 5JD"
        }
      ]
    },
    {
      "id": "garden-court-chambers",
      "name": "Garden Court Chambers",
      "website": "https://gardencourtchambers.co.uk",
      "email": "info@gclaw.co.uk",
      "phone": "020 7993 7600",
      "aliases": [
        "GCC"
      ],
      "branches": [
        {
          "name": "London",
          "city": "London",
          "lat": 51.5163,
          "lon": -0.119,
          "phone": "020 7993 7600",
          "address": "57-60 Lincoln's Inn Fields, London WC2A 3LJ"
        }
      ]
    },
    {
      "id": "guildford-chambers",
      "name": "Guildford Chambers",
      "website": "https://guildfordchambers.com",
      "email": "clerks@guildfordchambers.com",
      "phone": "01483 539131",
      "aliases": [],
      "branches": [
        {
          "name": "Guildford",
          "city": "Guildford",
          "lat": 51.2362,
          "lon": -0.5704,
          "phone": "01483 539131",
          "address": "Stoke House, Leapale Lane, Guildford GU1 4LY"
        }
      ]
    },
    {
      "id": "harcourt-chambers",
      "name": "Harcourt Chambers",
      "website": "https://harcourtchambers.co.uk",
      "email": "clerks@harcourtchambers.co.uk",
      "phone": "020 7353 6961",
      "aliases": [],
      "branches": [
        {
          "name": "London",
          "city": "London",
          "lat": 51.5141,
          "lon": -0.1102,
          "phone": "020 7353 6961",
          "address": "2 Harcourt Buildings, Temple, London EC4Y 9DB"
        },
        {
          "name": "Oxford",
          "city": "Oxford",
          "lat": 51.7479,
          "lon": -1.2559,
          "phone": "01865 791559",
          "address": "Churchill House, 3 St Aldate's Courtyard, 38 St Aldate's, Oxford OX1 1BN"
        }
      ]
    },
    {
      "id": "kbg-chambers",
      "name": "KBG Chambers",
      "website": "https://kbgchambers.co.uk",
      "email": "familyclerks@kbgchambers.co.uk",
      "phone": "01752 221551",
      "aliases": [],
      "branches": [
        {
          "name": "Plymouth",
          "city": "Plymouth",
          "lat": 50.3598,
          "lon": -4.1669,
          "phone": "01752 221551",
          "address": "Unit 18, Mills Bakery, Royal William Yard, Plymouth PL1 3GE"
        },
        {
          "name": "Truro",
          "city": "Truro",
          "lat": 50.2632,
          "lon": -5.051,
          "phone": "01872 672551",
          "address": "13 Walsingham Place, Truro TR1 2RP"
        },
        {
          "name": "Exeter",
          "city": "Exeter",
          "lat": 50.7217,
          "lon": -3.5262,
          "phone": "01392 690551",
          "address": "The Senate, Third Floor, Exeter EX1 1UG"
        }
      ]
    },
    {
      "id": "kbw-chambers",
      "name": "KBW Chambers",
      "website": "https://kbwchambers.com",
      "email": "clerks@kbwchambers.com",
      "phone": "0113 297 1200",
      "aliases": [],
      "branches": [
        {
          "name": "Leeds",
          "city": "Leeds",
          "lat": 53.7912,
          "lon": -1.5519,
          "phone": "0113 297 1200",
          "address": "The Engine House, No 1 Foundry Square, Leeds LS11 5DL"
        }
      ]
    },
    {
      "id": "kch-garden-square",
      "name": "KCH Garden Square",
      "website": "https://kchgardensquare.co.uk",
      "email": "family@kchgardensquare.co.uk",
      "phone": "0115 941 8851",
      "aliases": [],
      "branches": [
        {
          "name": "Nottingham",
          "city": "Nottingham",
          "lat": 52.9535,
          "lon": -1.1577,
          "phone": "0115 941 8851",
          "address": "1 Oxford Street, Nottingham NG1 5BH"
        }
      ]
    },
    {
      "id": "kenworthy-s-chambers",
      "name": "Kenworthy's Chambers",
      "website": "https://www.kenworthysbarristers.co.uk",
      "email": "maria@kenworthysbarristers.co.uk",
      "phone": "0161 832 4036",
      "aliases": [],
      "branches": [
        {
          "name": "Manchester",
          "city": "Manchester",
          "lat": 53.4816,
          "lon": -2.2388,
          "phone": "0161 832 4036",
          "address": "3rd Floor, Victoria Buildings, 1-7 Princess Street, Albert Square, Manchester M2 4DF"
        }
      ]
    },
    {
      "id": "lincoln-house-chambers",
      "name": "Lincoln House Chambers",
      "website": "https://lincolnhouse.co.uk",
      "email": "info@lincolnhouse.co.uk",
      "phone": "0161 832 5701",
      "aliases": [],
      "branches": [
        {
          "name": "Manchester",
          "city": "Manchester",
          "lat": 53.4811,
          "lon": -2.2467,
          "phone": "0161 832 5701",
          "address": "Tower 12, 18-22 Bridge Street, Manchester M3 3BZ"
        }
      ]
    },
    {
      "id": "linenhall-chambers",
      "name": "Linenhall Chambers",
      "website": "https://www.lhchambers.co.uk",
      "email": "clerks@lhchambers.co.uk",
      "phone": "01244 348282",
      "aliases": [],
      "branches": [
        {
          "name": "Chester",
          "city": "Chester",
          "lat": 53.1905,
          "lon": -2.8908,
          "phone": "01244 348282",
          "address": "1 Stanley Place, Chester CH1 2LU"
        }
      ]
    },
    {
      "id": "magdalen-chambers",
      "name": "Magdalen Chambers",
      "website": "https://magdalenchambers.co.uk",
      "email": "clerks@magdalenchambers.co.uk",
      "phone": "01392 285200",
      "aliases": [],
      "branches": [
        {
          "name": "Exeter",
          "city": "Exeter",
          "lat": 50.7204,
          "lon": -3.5272,
          "phone": "01392 285200",
          "address": "Victory House, Dean Clarke Gardens, Exeter EX2 4AA"
        }
      ]
    },
    {
      "id": "new-bailey-chambers",
      "name": "New Bailey Chambers",
      "website": "https://newbailey.com",
      "email": "clerks@newbailey.com",
      "phone": "0151 236 9402",
      "aliases": [],
      "branches": [
        {
          "name": "Liverpool",
          "city": "Liverpool",
          "lat": 53.4019,
          "lon": -2.9837,
          "phone": "0151 236 9402",
          "address": "2nd Floor, 10 Duke Street, Liverpool L1 5AS"
        }
      ]
    },
    {
      "id": "new-park-court",
      "name": "New Park Court",
      "website": "https://newparkcourt.co.uk",
      "email": "clerks@newparkcourt.co.uk",
      "phone": "0113 243 3277",
      "aliases": [
        "Park Court Chambers",
        "Park Court"
      ],
      "branches": [
        {
          "name": "Leeds",
          "city": "Leeds",
          "lat": 53.7974,
          "lon": -1.5501,
          "phone": "0113 243 3277",
          "address": "16 Park Place, Leeds LS1 2SJ"
        },
        {
          "name": "Newcastle",
          "city": "Newcastle upon Tyne",
          "lat": 54.9701,
          "lon": -1.6116,
          "phone": "0191 232 1980",
          "address": "3 Broad Chare, Newcastle upon Tyne NE1 3DQ"
        }
      ]
    },
    {
      "id": "nine-chambers",
      "name": "Nine Chambers",
      "website": "https://ninechambers.com",
      "email": "family@ninechambers.com",
      "phone": "0161 955 9000",
      "aliases": [],
      "branches": [
        {
          "name": "Manchester",
          "city": "Manchester",
          "lat": 53.478,
          "lon": -2.2446,
          "phone": "0161 955 9000",
          "address": "37 Peter Street, Manchester M2 5GB"
        }
      ]
    },
    {
      "id": "no-18-chambers",
      "name": "No.18 Chambers",
      "website": "https://no18chambers.com",
      "email": "clerks@no18chambers.com",
      "phone": "023 8073 6812",
      "aliases": [],
      "branches": [
        {
          "name": "Southampton",
          "city": "Southampton",
          "lat": 50.9097,
          "lon": -1.4044,
          "phone": "023 8073 6812",
          "address": "21 Carlton Crescent, Southampton SO15 2ET"
        }
      ]
    },
    {
      "id": "no-5-barristers-chambers",
      "name": "No.5 Barristers' Chambers",
      "website": "https://no5.com",
      "email": "info@no5.com",
      "phone": "0345 210 5555",
      "aliases": [],
      "branches": [
        {
          "name": "Birmingham",
          "city": "Birmingham",
          "lat": 52.4797,
          "lon": -1.8951,
          "phone": "0345 210 5555",
          "address": "103 Colmore Row, Birmingham B3 3AG"
        },
        {
          "name": "London",
          "city": "London",
          "lat": 51.5132,
          "lon": -0.1092,
          "phone": "020 7696 9900",
          "address": "5 Fountain Court, London EC4Y 9DH"
        }
      ]
    },
    {
      "id": "north-square-barristers",
      "name": "North Square Barristers",
      "website": "https://www.northsquarebarristers.com",
      "email": "clerks@nsqb.co.uk",
      "phone": "0191 429 3838",
      "aliases": [
        "NSQB"
      ],
      "branches": [
        {
          "name": "Newcastle upon Tyne",
          "city": "Newcastle upon Tyne",
          "lat": 54.9753,
          "lon": -1.6089,
          "phone": "0191 429 3838",
          "address": "6 Higham Place, Newcastle upon Tyne NE1 8AF"
        }
      ]
    },
    {
      "id": "northampton-chambers",
      "name": "Northampton Chambers",
      "website": "https://northampton-chambers.co.uk",
      "email": "clerks@northampton-chambers.co.uk",
      "phone": "01604 636271",
      "aliases": [],
      "branches": [
        {
          "name": "Northampton",
          "city": "Northampton",
          "lat": 52.2379,
          "lon": -0.8882,
          "phone": "01604 636271",
          "address": "10 Spencer Parade, Northampton NN1 5AQ"
        }
      ]
    },
    {
      "id": "one-pump-court",
      "name": "One Pump Court",
      "website": "https://onepumpcourt.co.uk",
      "email": "clerks@onepumpcourt.co.uk",
      "phone": "020 7842 7070",
      "aliases": [
        "OPC"
      ],
      "branches": [
        {
          "name": "London",
          "city": "London",
          "lat": 51.5134,
          "lon": -0.1098,
          "phone": "020 7842 7070",
          "address": "1 Pump Court, Elm Court, Temple, London EC4Y 7AH"
        }
      ]
    },
    {
      "id": "park-square-barristers",
      "name": "Park Square Barristers",
      "website": "https://www.parksquarebarristers.co.uk",
      "email": "clerksfamily@psqb.co.uk",
      "phone": "0113 245 9763",
      "aliases": [
        "PSQB",
        "Park Square"
      ],
      "branches": [
        {
          "name": "Leeds",
          "city": "Leeds",
          "lat": 53.7995,
          "lon": -1.5517,
          "phone": "0113 245 9763",
          "address": "6 Park Square East, Leeds LS1 2LW"
        },
        {
          "name": "Teesside",
          "city": "Middlesbrough",
          "lat": 54.5742,
          "lon": -1.235,
          "phone": "01642 232523",
          "address": "Ground Floor, 2 Centre Square, Middlesbrough TS1 2BF"
        },
        {
          "name": "Newcastle",
          "city": "Newcastle upon Tyne",
          "lat": 54.9701,
          "lon": -1.6116,
          "phone": "0191 406 7800",
          "address": "3-7 Broad Chare, First Floor, Baltic Chambers, Newcastle upon Tyne NE1 3DQ"
        }
      ]
    },
    {
      "id": "parklane-plowden",
      "name": "Parklane Plowden",
      "website": "https://parklaneplowden.co.uk",
      "email": "familyclerks@parklaneplowden.co.uk",
      "phone": "0330 390 4303",
      "aliases": [],
      "branches": [
        {
          "name": "Leeds",
          "city": "Leeds",
          "lat": 53.8008,
          "lon": -1.5491,
          "phone": "0113 228 5000",
          "address": "19 Westgate, Leeds, West Yorkshire LS1 2RD"
        },
        {
          "name": "Newcastle",
          "city": "Newcastle upon Tyne",
          "lat": 54.9744,
          "lon": -1.6112,
          "phone": "0191 221 2121",
          "address": "Portland House, New Bridge Street West, Newcastle upon Tyne NE1 8AL"
        }
      ]
    },
    {
      "id": "pump-court-chambers",
      "name": "Pump Court Chambers",
      "website": "https://www.pumpcourtchambers.com",
      "email": "clerks@pumpcourtchambers.com",
      "phone": "020 7353 0711",
      "aliases": [],
      "branches": [
        {
          "name": "London",
          "city": "London",
          "lat": 51.5128,
          "lon": -0.1088,
          "phone": "020 7353 0711",
          "address": "3 Pump Court, Temple, London EC4Y 7AJ"
        },
        {
          "name": "Winchester",
          "city": "Winchester",
          "lat": 51.062,
          "lon": -1.3174,
          "phone": "01962 868161",
          "address": "31 Southgate Street, Winchester SO23 9EB"
        },
        {
          "name": "Swindon",
          "city": "Swindon",
          "lat": 51.564,
          "lon": -1.7837,
          "phone": "01793 539899",
          "address": "3 Newbridge Square, Aylesbury Street, Swindon SN1 1HN"
        }
      ]
    },
    {
      "id": "queen-square-chambers",
      "name": "Queen Square Chambers",
      "website": "https://qsc.law",
      "email": "family@qsc.law",
      "phone": "0117 921 1966",
      "aliases": [],
      "branches": [
        {
          "name": "Bristol",
          "city": "Bristol",
          "lat": 51.4507,
          "lon": -2.5961,
          "phone": "0117 921 1966",
          "address": "56 Queen Square, Bristol BS1 4PR"
        }
      ]
    },
    {
      "id": "regent-chambers",
      "name": "Regent Chambers",
      "website": "https://regentchambers.co.uk",
      "email": "clerks@regentchambers.co.uk",
      "phone": "01782 286666",
      "aliases": [],
      "branches": [
        {
          "name": "Stoke-on-Trent",
          "city": "Stoke-on-Trent",
          "lat": 53.0238,
          "lon": -2.1763,
          "phone": "01782 286666",
          "address": "Regent House, 3 Pall Mall, Hanley, Stoke-on-Trent ST1 1HP"
        }
      ]
    },
    {
      "id": "ropewalk-chambers",
      "name": "Ropewalk Chambers",
      "website": "https://ropewalk.co.uk",
      "email": "info@ropewalk.co.uk",
      "phone": "0115 947 2581",
      "aliases": [],
      "branches": [
        {
          "name": "Nottingham",
          "city": "Nottingham",
          "lat": 52.9543,
          "lon": -1.1556,
          "phone": "0115 947 2581",
          "address": "24 The Ropewalk, Nottingham NG1 5EF"
        }
      ]
    },
    {
      "id": "rowchester-chambers",
      "name": "Rowchester Chambers",
      "website": "https://rowchesterchambers.co.uk",
      "email": "clerks@rowchesterchambers.co.uk",
      "phone": "0121 233 2327",
      "aliases": [],
      "branches": [
        {
          "name": "Birmingham",
          "city": "Birmingham",
          "lat": 52.4816,
          "lon": -1.8997,
          "phone": "0121 233 2327",
          "address": "Cubo, 55 Colmore Row, Birmingham B3 2AA"
        }
      ]
    },
    {
      "id": "st-ives-chambers",
      "name": "St Ives Chambers",
      "website": "https://stiveschambers.co.uk",
      "email": "clerks@stiveschambers.co.uk",
      "phone": "0121 236 0863",
      "aliases": [],
      "branches": [
        {
          "name": "Birmingham",
          "city": "Birmingham",
          "lat": 52.4828,
          "lon": -1.8948,
          "phone": "0121 236 0863",
          "address": "1 Fountain Court, Steelhouse Lane, Birmingham B4 6DR"
        }
      ]
    },
    {
      "id": "st-john-s-buildings",
      "name": "St John's Buildings",
      "website": "https://stjohnsbuildings.com",
      "email": "clerk@stjohnsbuildings.co.uk",
      "phone": "0161 214 1500",
      "aliases": [],
      "branches": [
        {
          "name": "Manchester",
          "city": "Manchester",
          "lat": 53.478,
          "lon": -2.2518,
          "phone": "0161 214 1500",
          "address": "24a-26 St John Street, Manchester M3 4DJ"
        },
        {
          "name": "Sheffield",
          "city": "Sheffield",
          "lat": 53.3815,
          "lon": -1.4687,
          "phone": "0114 273 8951",
          "address": "6 Park Square, Sheffield S1 2JE"
        },
        {
          "name": "Chester",
          "city": "Chester",
          "lat": 53.1886,
          "lon": -2.8926,
          "phone": "01244 323 070",
          "address": "21 White Friars, Chester CH1 1NZ"
        },
        {
          "name": "Liverpool",
          "city": "Liverpool",
          "lat": 53.4084,
          "lon": -2.9916,
          "phone": "0151 243 6000",
          "address": "99 Old Hall Street, Liverpool L3 9PP"
        }
      ]
    },
    {
      "id": "st-mary-s-chambers",
      "name": "St Mary's Chambers",
      "website": "https://stmarysfamily.co.uk",
      "email": "clerks@stmarysfamily.co.uk",
      "phone": "0115 950 3503",
      "aliases": [],
      "branches": [
        {
          "name": "Nottingham",
          "city": "Nottingham",
          "lat": 52.952,
          "lon": -1.1431,
          "phone": "0115 950 3503",
          "address": "32a Stoney Street, Nottingham NG1 1LL"
        }
      ]
    },
    {
      "id": "st-pauls-chambers",
      "name": "St Pauls Chambers",
      "website": "https://stpaulschambers.com",
      "email": "clerks@stpaulschambers.com",
      "phone": "0113 245 5866",
      "aliases": [],
      "branches": [
        {
          "name": "Leeds",
          "city": "Leeds",
          "lat": 53.7989,
          "lon": -1.548,
          "phone": "0113 245 5866",
          "address": "Park Row House, 19-20 Park Row, Leeds LS1 5JF"
        }
      ]
    },
    {
      "id": "st-philips-chambers",
      "name": "St Philips Chambers",
      "website": "https://st-philips.com",
      "email": "family@st-philips.com",
      "phone": "0121 246 1600",
      "aliases": [],
      "branches": [
        {
          "name": "Birmingham",
          "city": "Birmingham",
          "lat": 52.4814,
          "lon": -1.8998,
          "phone": "0121 246 1600",
          "address": "55 Temple Row, Birmingham B2 5LS"
        }
      ]
    },
    {
      "id": "trinity-chambers",
      "name": "Trinity Chambers",
      "website": "https://trinitychambers.co.uk",
      "email": "info@trinitychambers.co.uk",
      "phone": "0191 232 1927",
      "aliases": [],
      "branches": [
        {
          "name": "Newcastle upon Tyne",
          "city": "Newcastle upon Tyne",
          "lat": 54.9693,
          "lon": -1.6046,
          "phone": "0191 232 1927",
          "address": "The Custom House, Quayside, Newcastle upon Tyne NE1 3DE"
        }
      ]
    },
    {
      "id": "wilberforce-chambers-hullbar",
      "name": "Wilberforce Chambers (Hullbar)",
      "website": "https://www.wilberforcebarristers.co.uk",
      "email": "clerks@hullbar.co.uk",
      "phone": "01482 323 264",
      "aliases": [],
      "branches": [
        {
          "name": "Hull",
          "city": "Hull",
          "lat": 53.744,
          "lon": -0.331,
          "phone": "01482 323 264",
          "address": "7-9 Bishop Lane, Hull HU1 1PA"
        }
      ]
    }
  ],
  "courts": [
    {
      "id": "central-family-court",
      "name": "Central Family Court",
      "location": "London",
      "lat": 51.5175,
      "lon": -0.1181,
      "aliases": [
        "Central",
        "London"
      ]
    },
    {
      "id": "barnet-family-court",
      "name": "Barnet Family Court",
      "location": "Barnet, London",
      "lat": 51.642,
      "lon": -0.209,
      "aliases": [
        "Barnet",
        "Barnet, London"
      ]
    },
    {
      "id": "kingston-upon-thames-family-court",
      "name": "Kingston-Upon-Thames Family Court",
      "location": "Kingston, London",
      "lat": 51.4085,
      "lon": -0.3064,
      "aliases": [
        "Kingston-Upon-Thames",
        "Kingston, London"
      ]
    },
    {
      "id": "willesden-magistrates-court",
      "name": "Willesden Magistrates' Court",
      "location": "Willesden, London",
      "lat": 51.5494,
      "lon": -0.2435,
      "aliases": [
        "Willesden",
        "Willesden, London"
      ]
    },
    {
      "id": "edmonton-magistrates-court",
      "name": "Edmonton Magistrates' Court",
      "location": "Edmonton, London",
      "lat": 51.6134,
      "lon": -0.073,
      "aliases": [
        "Edmonton",
        "Edmonton, London"
      ]
    },
    {
      "id": "birkenhead-county-court",
      "name": "Birkenhead County Court",
      "location": "Birkenhead",
      "lat": 53.393,
      "lon": -3.0149,
      "aliases": [
        "Birkenhead"
      ]
    },
    {
      "id": "chester-family-court",
      "name": "Chester Family Court",
      "location": "Chester",
      "lat": 53.1905,
      "lon": -2.8908,
      "aliases": [
        "Chester"
      ]
    },
    {
      "id": "crewe-family-court",
      "name": "Crewe Family Court",
      "location": "Crewe",
      "lat": 53.0979,
      "lon": -2.4416,
      "aliases": [
        "Crewe"
      ]
    },
    {
      "id": "lancaster-family-court",
      "name": "Lancaster Family Court",
      "location": "Lancaster",
      "lat": 54.0465,
      "lon": -2.8007,
      "aliases": [
        "Lancaster",
        "Lancaster Courthouse"
      ]
    },
    {
      "id": "liverpool-family-court",
      "name": "Liverpool Family Court",
      "location": "Liverpool",
      "lat": 53.4084,
      "lon": -2.9916,
      "aliases": [
        "Liverpool"
      ]
    },
    {
      "id": "manchester-family-court",
      "name": "Manchester Family Court",
      "location": "Manchester",
      "lat": 53.4808,
      "lon": -2.2426,
      "aliases": [
        "Manchester"
      ]
    },
    {
      "id": "st-helens-magistrates-court",
      "name": "St Helens Magistrates' Court",
      "location": "St Helens",
      "lat": 53.453,
      "lon": -2.7373,
      "aliases": [
        "St Helens"
      ]
    },
    {
      "id": "stockport-magistrates-court",
      "name": "Stockport Magistrates' Court",
      "location": "Stockport",
      "lat": 53.4106,
      "lon": -2.1575,
      "aliases": [
        "Stockport"
      ]
    },
    {
      "id": "wigan-magistrates-court",
      "name": "Wigan Magistrates' Court",
      "location": "Wigan",
      "lat": 53.5448,
      "lon": -2.6318,
      "aliases": [
        "Wigan"
      ]
    },
    {
      "id": "bradford-family-court",
      "name": "Bradford Family Court",
      "location": "Bradford",
      "lat": 53.796,
      "lon": -1.7594,
      "aliases": [
        "Bradford"
      ]
    },
    {
      "id": "doncaster-family-court",
      "name": "Doncaster Family Court",
      "location": "Doncaster",
      "lat": 53.5228,
      "lon": -1.1285,
      "aliases": [
        "Doncaster",
        "Doncaster Justice Centre North",
        "Doncaster Justice Centre South"
      ]
    },
    {
      "id": "gateshead-magistrates-court",
      "name": "Gateshead Magistrates' Court",
      "location": "Gateshead",
      "lat": 54.9526,
      "lon": -1.6034,
      "aliases": [
        "Gateshead"
      ]
    },
    {
      "id": "huddersfield-family-court",
      "name": "Huddersfield Family Court",
      "location": "Huddersfield",
      "lat": 53.6458,
      "lon": -1.785,
      "aliases": [
        "Huddersfield"
      ]
    },
    {
      "id": "kingston-upon-hull-family-court",
      "name": "Kingston-Upon-Hull Family Court",
      "location": "Hull",
      "lat": 53.7457,
      "lon": -0.3367,
      "aliases": [
        "Kingston-Upon-Hull",
        "Hull"
      ]
    },
    {
      "id": "leeds-family-court",
      "name": "Leeds Family Court",
      "location": "Leeds",
      "lat": 53.8008,
      "lon": -1.5491,
      "aliases": [
        "Leeds"
      ]
    },
    {
      "id": "middlesbrough-family-court",
      "name": "Middlesbrough Family Court",
      "location": "Middlesbrough",
      "lat": 54.5742,
      "lon": -1.235,
      "aliases": [
        "Middlesbrough",
        "Middlesbrough County Court at Teesside Combined Court"
      ]
    },
    {
      "id": "newcastle-upon-tyne-family-court",
      "name": "Newcastle upon Tyne Family Court",
      "location": "Newcastle",
      "lat": 54.9783,
      "lon": -1.6178,
      "aliases": [
        "Newcastle upon Tyne",
        "Newcastle"
      ]
    },
    {
      "id": "sheffield-family-court",
      "name": "Sheffield Family Court",
      "location": "Sheffield",
      "lat": 53.3811,
      "lon": -1.4701,
      "aliases": [
        "Sheffield",
        "Sheffield Designated Family Court"
      ]
    },
    {
      "id": "sunderland-family-court",
      "name": "Sunderland Family Court",
      "location": "Sunderland",
      "lat": 54.9069,
      "lon": -1.3838,
      "aliases": [
        "Sunderland",
        "Sunderland County, Family, Magistrates’ and Tribunal Hearings"
      ]
    },
    {
      "id": "york-family-court",
      "name": "York Family Court",
      "location": "York",
      "lat": 53.9591,
      "lon": -1.0815,
      "aliases": [
        "York"
      ]
    },
    {
      "id": "birmingham-family-court",
      "name": "Birmingham Family Court",
      "location": "Birmingham",
      "lat": 52.4862,
      "lon": -1.8904,
      "aliases": [
        "Birmingham"
      ]
    },
    {
      "id": "coventry-family-court",
      "name": "Coventry Family Court",
      "location": "Coventry",
      "lat": 52.4068,
      "lon": -1.5197,
      "aliases": [
        "Coventry"
      ]
    },
    {
      "id": "leicester-family-court",
      "name": "Leicester Family Court",
      "location": "Leicester",
      "lat": 52.6369,
      "lon": -1.1398,
      "aliases": [
        "Leicester"
      ]
    },
    {
      "id": "lincoln-family-court",
      "name": "Lincoln Family Court",
      "location": "Lincoln",
      "lat": 53.2307,
      "lon": -0.5406,
      "aliases": [
        "Lincoln"
      ]
    },
    {
      "id": "northampton-family-court",
      "name": "Northampton Family Court",
      "location": "Northampton",
      "lat": 52.2405,
      "lon": -0.9027,
      "aliases": [
        "Northampton"
      ]
    },
    {
      "id": "nottingham-family-court",
      "name": "Nottingham Family Court",
      "location": "Nottingham",
      "lat": 52.9548,
      "lon": -1.1581,
      "aliases": [
        "Nottingham"
      ]
    },
    {
      "id": "stoke-on-trent-family-court",
      "name": "Stoke-on-Trent Family Court",
      "location": "Stoke-on-Trent",
      "lat": 53.0027,
      "lon": -2.1794,
      "aliases": [
        "Stoke-on-Trent"
      ]
    },
    {
      "id": "telford-magistrates-court",
      "name": "Telford Magistrates' Court",
      "location": "Telford",
      "lat": 52.6766,
      "lon": -2.4474,
      "aliases": [
        "Telford"
      ]
    },
    {
      "id": "wolverhampton-family-court",
      "name": "Wolverhampton Family Court",
      "location": "Wolverhampton",
      "lat": 52.5855,
      "lon": -2.129,
      "aliases": [
        "Wolverhampton"
      ]
    },
    {
      "id": "worcester-family-court",
      "name": "Worcester Family Court",
      "location": "Worcester",
      "lat": 52.1936,
      "lon": -2.221,
      "aliases": [
        "Worcester"
      ]
    },
    {
      "id": "aldershot-magistrates-court",
      "name": "Aldershot Magistrates' Court",
      "location": "Aldershot",
      "lat": 51.248,
      "lon": -0.7636,
      "aliases": [
        "Aldershot"
      ]
    },
    {
      "id": "basingstoke-magistrates-court",
      "name": "Basingstoke Magistrates' Court",
      "location": "Basingstoke",
      "lat": 51.2664,
      "lon": -1.0871,
      "aliases": [
        "Basingstoke"
      ]
    },
    {
      "id": "bedford-magistrates-court",
      "name": "Bedford Magistrates' Court",
      "location": "Bedford",
      "lat": 52.1357,
      "lon": -0.4669,
      "aliases": [
        "Bedford"
      ]
    },
    {
      "id": "canterbury-family-court",
      "name": "Canterbury Family Court",
      "location": "Canterbury",
      "lat": 51.2802,
      "lon": 1.0789,
      "aliases": [
        "Canterbury"
      ]
    },
    {
      "id": "chelmsford-family-court",
      "name": "Chelmsford Family Court",
      "location": "Chelmsford",
      "lat": 51.7356,
      "lon": 0.4685,
      "aliases": [
        "Chelmsford"
      ]
    },
    {
      "id": "colchester-magistrates-court",
      "name": "Colchester Magistrates' Court",
      "location": "Colchester",
      "lat": 51.886,
      "lon": 0.9035,
      "aliases": [
        "Colchester"
      ]
    },
    {
      "id": "guildford-family-court",
      "name": "Guildford Family Court",
      "location": "Guildford",
      "lat": 51.2362,
      "lon": -0.5704,
      "aliases": [
        "Guildford"
      ]
    },
    {
      "id": "ipswich-family-court",
      "name": "Ipswich Family Court",
      "location": "Ipswich",
      "lat": 52.0594,
      "lon": 1.1556,
      "aliases": [
        "Ipswich"
      ]
    },
    {
      "id": "luton-family-court",
      "name": "Luton Family Court",
      "location": "Luton",
      "lat": 51.8787,
      "lon": -0.42,
      "aliases": [
        "Luton"
      ]
    },
    {
      "id": "medway-magistrates-court",
      "name": "Medway Magistrates' Court",
      "location": "Medway",
      "lat": 51.3886,
      "lon": 0.5214,
      "aliases": [
        "Medway"
      ]
    },
    {
      "id": "norwich-family-court",
      "name": "Norwich Family Court",
      "location": "Norwich",
      "lat": 52.6309,
      "lon": 1.2974,
      "aliases": [
        "Norwich"
      ]
    },
    {
      "id": "oxford-family-court",
      "name": "Oxford Family Court",
      "location": "Oxford",
      "lat": 51.752,
      "lon": -1.2577,
      "aliases": [
        "Oxford"
      ]
    },
    {
      "id": "portsmouth-family-court",
      "name": "Portsmouth Family Court",
      "location": "Portsmouth",
      "lat": 50.8198,
      "lon": -1.088,
      "aliases": [
        "Portsmouth"
      ]
    },
    {
      "id": "reading-family-court",
      "name": "Reading Family Court",
      "location": "Reading",
      "lat": 51.4543,
      "lon": -0.9781,
      "aliases": [
        "Reading"
      ]
    },
    {
      "id": "slough-family-court",
      "name": "Slough Family Court",
      "location": "Slough",
      "lat": 51.5105,
      "lon": -0.595,
      "aliases": [
        "Slough"
      ]
    },
    {
      "id": "southampton-family-court",
      "name": "Southampton Family Court",
      "location": "Southampton",
      "lat": 50.9097,
      "lon": -1.4044,
      "aliases": [
        "Southampton"
      ]
    },
    {
      "id": "worthing-magistrates-court",
      "name": "Worthing Magistrates' Court",
      "location": "Worthing",
      "lat": 50.8145,
      "lon": -0.3716,
      "aliases": [
        "Worthing"
      ]
    },
    {
      "id": "bristol-family-court",
      "name": "Bristol Family Court",
      "location": "Bristol",
      "lat": 51.4545,
      "lon": -2.5879,
      "aliases": [
        "Bristol"
      ]
    },
    {
      "id": "cardiff-family-court",
      "name": "Cardiff Family Court",
      "location": "Cardiff",
      "lat": 51.4816,
      "lon": -3.1791,
      "aliases": [
        "Cardiff"
      ]
    },
    {
      "id": "exeter-family-court",
      "name": "Exeter Family Court",
      "location": "Exeter",
      "lat": 50.7184,
      "lon": -3.5339,
      "aliases": [
        "Exeter"
      ]
    },
    {
      "id": "newport-family-court",
      "name": "Newport Family Court",
      "location": "Newport",
      "lat": 51.5842,
      "lon": -2.9977,
      "aliases": [
        "Newport"
      ]
    },
    {
      "id": "swansea-family-court",
      "name": "Swansea Family Court",
      "location": "Swansea",
      "lat": 51.6214,
      "lon": -3.9436,
      "aliases": [
        "Swansea"
      ]
    },
    {
      "id": "taunton-family-court",
      "name": "Taunton Family Court",
      "location": "Taunton",
      "lat": 51.015,
      "lon": -3.1006,
      "aliases": [
        "Taunton"
      ]
    },
    {
      "id": "truro-family-court",
      "name": "Truro Family Court",
      "location": "Truro, Cornwall",
      "lat": 50.2632,
      "lon": -5.051,
      "aliases": [
        "Truro",
        "Truro, Cornwall"
      ]
    },
    {
      "id": "wrexham-magistrates-court",
      "name": "Wrexham Magistrates' Court",
      "location": "Wrexham",
      "lat": 53.0462,
      "lon": -2.993,
      "aliases": [
        "Wrexham"
      ]
    },
    {
      "id": "plymouth-family-court",
      "name": "Plymouth Family Court",
      "location": "Plymouth",
      "lat": 50.3755,
      "lon": -4.1427,
      "aliases": [
        "Plymouth"
      ]
    },
    {
      "id": "preston-family-court",
      "name": "Preston Family Court",
      "location": "Preston",
      "lat": 53.759,
      "lon": -2.7038,
      "aliases": [
        "Preston"
      ]
    },
    {
      "id": "blackpool-family-court",
      "name": "Blackpool Family Court",
      "location": "Blackpool",
      "lat": 53.8175,
      "lon": -3.0516,
      "aliases": [
        "Blackpool"
      ]
    },
    {
      "id": "carlisle-family-court",
      "name": "Carlisle Family Court",
      "location": "Carlisle",
      "lat": 54.8951,
      "lon": -2.9382,
      "aliases": [
        "Carlisle"
      ]
    },
    {
      "id": "winchester-family-court",
      "name": "Winchester Family Court",
      "location": "Winchester",
      "lat": 51.0629,
      "lon": -1.3169,
      "aliases": [
        "Winchester"
      ]
    },
    {
      "id": "bournemouth-family-court",
      "name": "Bournemouth Family Court",
      "location": "Bournemouth",
      "lat": 50.7192,
      "lon": -1.8781,
      "aliases": [
        "Bournemouth"
      ]
    },
    {
      "id": "brighton-family-court",
      "name": "Brighton Family Court",
      "location": "Brighton",
      "lat": 50.8229,
      "lon": -0.1417,
      "aliases": [
        "Brighton"
      ]
    },
    {
      "id": "cambridge-family-court",
      "name": "Cambridge Family Court",
      "location": "Cambridge",
      "lat": 52.2044,
      "lon": 0.1321,
      "aliases": [
        "Cambridge"
      ]
    },
    {
      "id": "peterborough-family-court",
      "name": "Peterborough Family Court",
      "location": "Peterborough",
      "lat": 52.5697,
      "lon": -0.2429,
      "aliases": [
        "Peterborough"
      ]
    },
    {
      "id": "derby-family-court",
      "name": "Derby Family Court",
      "location": "Derby",
      "lat": 52.9225,
      "lon": -1.4746,
      "aliases": [
        "Derby"
      ]
    },
    {
      "id": "gloucester-family-court",
      "name": "Gloucester Family Court",
      "location": "Gloucester",
      "lat": 51.8637,
      "lon": -2.243,
      "aliases": [
        "Gloucester",
        "Gloucester and Cheltenham County and Family Court"
      ]
    },
    {
      "id": "shrewsbury-family-court",
      "name": "Shrewsbury Family Court",
      "location": "Shrewsbury",
      "lat": 52.7118,
      "lon": -2.7528,
      "aliases": [
        "Shrewsbury"
      ]
    },
    {
      "id": "swindon-family-court",
      "name": "Swindon Family Court",
      "location": "Swindon",
      "lat": 51.5639,
      "lon": -1.784,
      "aliases": [
        "Swindon"
      ]
    },
    {
      "id": "bath-family-court",
      "name": "Bath Family Court",
      "location": "Bath",
      "lat": 51.3797,
      "lon": -2.3596,
      "aliases": [
        "Bath"
      ]
    },
    {
      "id": "blackburn-family-court",
      "name": "Blackburn Family Court",
      "location": "Blackburn",
      "lat": 53.749,
      "lon": -2.4839,
      "aliases": [
        "Blackburn"
      ]
    },
    {
      "id": "bolton-family-court",
      "name": "Bolton Family Court",
      "location": "Bolton",
      "lat": 53.5778,
      "lon": -2.4284,
      "aliases": [
        "Bolton"
      ]
    },
    {
      "id": "warrington-family-court",
      "name": "Warrington Family Court",
      "location": "Warrington",
      "lat": 53.3896,
      "lon": -2.5966,
      "aliases": [
        "Warrington"
      ]
    },
    {
      "id": "barrow-family-court",
      "name": "Barrow-in-Furness Family Court",
      "location": "Barrow-in-Furness",
      "lat": 54.1121,
      "lon": -3.2183,
      "aliases": [
        "Barrow",
        "Barrow-in-Furness"
      ]
    },
    {
      "id": "burnley-family-court",
      "name": "Burnley Family Court",
      "location": "Burnley",
      "lat": 53.7901,
      "lon": -2.2368,
      "aliases": [
        "Burnley"
      ]
    },
    {
      "id": "hereford-family-court",
      "name": "Hereford Family Court",
      "location": "Hereford",
      "lat": 52.0553,
      "lon": -2.7136,
      "aliases": [
        "Hereford"
      ]
    },
    {
      "id": "barnstaple-magistrates-county-and-family-court",
      "name": "Barnstaple Magistrates', County and Family Court",
      "location": "Barnstaple",
      "lat": 51.0813,
      "lon": -4.0648,
      "aliases": []
    },
    {
      "id": "basildon-magistrates-court-and-family-court",
      "name": "Basildon Magistrates' Court and Family Court",
      "location": "Basildon",
      "lat": 51.5719,
      "lon": 0.4586,
      "aliases": []
    },
    {
      "id": "blackwood-civil-and-family-court",
      "name": "Blackwood Civil and Family Court",
      "location": "Blackwood",
      "lat": 51.6665,
      "lon": -3.1929,
      "aliases": []
    },
    {
      "id": "bradford-and-keighley-magistrates-court-and-family-court",
      "name": "Bradford and Keighley Magistrates' Court and Family Court",
      "location": "Bradford",
      "lat": 53.7917,
      "lon": -1.7552,
      "aliases": []
    },
    {
      "id": "brentford-county-and-family-court",
      "name": "Brentford County and Family Court",
      "location": "Brentford",
      "lat": 51.4843,
      "lon": -0.3044,
      "aliases": []
    },
    {
      "id": "bromley-county-court-and-family-court",
      "name": "Bromley County Court and Family Court",
      "location": "Bromley",
      "lat": 51.4088,
      "lon": 0.0134,
      "aliases": []
    },
    {
      "id": "bury-st-edmunds-county-court-and-family-court",
      "name": "Bury St Edmunds County Court and Family Court",
      "location": "Bury St Edmunds",
      "lat": 52.2486,
      "lon": 0.711,
      "aliases": []
    },
    {
      "id": "carmarthen-county-court-and-family-court",
      "name": "Carmarthen County Court and Family Court",
      "location": "Carmarthen",
      "lat": 51.855,
      "lon": -4.3179,
      "aliases": []
    },
    {
      "id": "clerkenwell-and-shoreditch-county-court-and-family-court",
      "name": "Clerkenwell and Shoreditch County Court and Family Court",
      "location": "London",
      "lat": 51.5247,
      "lon": -0.0976,
      "aliases": []
    },
    {
      "id": "croydon-county-court-and-family-court",
      "name": "Croydon County Court and Family Court",
      "location": "Croydon",
      "lat": 51.3733,
      "lon": -0.0921,
      "aliases": []
    },
    {
      "id": "darlington-county-court-and-family-court",
      "name": "Darlington County Court and Family Court",
      "location": "Darlington",
      "lat": 54.5236,
      "lon": -1.5584,
      "aliases": []
    },
    {
      "id": "darlington-magistrates-court-and-family-court",
      "name": "Darlington Magistrates' Court and Family Court",
      "location": "Darlington",
      "lat": 54.524,
      "lon": -1.5498,
      "aliases": []
    },
    {
      "id": "dartford-county-court-and-family-court",
      "name": "Dartford County Court and Family Court",
      "location": "Dartford",
      "lat": 51.4453,
      "lon": 0.2203,
      "aliases": []
    },
    {
      "id": "dudley-county-court-and-family-court",
      "name": "Dudley County Court and Family Court",
      "location": "Dudley",
      "lat": 52.5099,
      "lon": -2.0879,
      "aliases": []
    },
    {
      "id": "durham-county-court-and-family-court",
      "name": "Durham County Court and Family Court",
      "location": "Durham",
      "lat": 54.7727,
      "lon": -1.5694,
      "aliases": []
    },
    {
      "id": "east-london-family-court",
      "name": "East London Family Court",
      "location": "London",
      "lat": 51.5059,
      "lon": -0.0256,
      "aliases": []
    },
    {
      "id": "great-yarmouth-magistrates-court-and-family-court",
      "name": "Great Yarmouth Magistrates' Court and Family Court",
      "location": "Great Yarmouth",
      "lat": 52.6132,
      "lon": 1.7249,
      "aliases": []
    },
    {
      "id": "grimsby-magistrates-court-and-family-court",
      "name": "Grimsby Magistrates' Court and Family Court",
      "location": "Grimsby",
      "lat": 53.5675,
      "lon": -0.0814,
      "aliases": []
    },
    {
      "id": "hastings-county-court-and-family-court",
      "name": "Hastings County Court and Family Court",
      "location": "Hastings",
      "lat": 50.8594,
      "lon": 0.5666,
      "aliases": []
    },
    {
      "id": "haverfordwest-county-court-and-family-court",
      "name": "Haverfordwest County Court and Family Court",
      "location": "Haverfordwest",
      "lat": 51.801,
      "lon": -4.9806,
      "aliases": []
    },
    {
      "id": "hertford-county-court-and-family-court",
      "name": "Hertford County Court and Family Court",
      "location": "Hertford",
      "lat": 51.7963,
      "lon": -0.078,
      "aliases": []
    },
    {
      "id": "high-wycombe-magistrates-court-and-family-court",
      "name": "High Wycombe Magistrates' Court and Family Court",
      "location": "High Wycombe",
      "lat": 51.6276,
      "lon": -0.7461,
      "aliases": []
    },
    {
      "id": "horsham-county-court-and-family-court",
      "name": "Horsham County Court and Family Court",
      "location": "Horsham",
      "lat": 51.0685,
      "lon": -0.3227,
      "aliases": []
    },
    {
      "id": "kings-lynn-magistrates-court-and-family-court",
      "name": "King's Lynn Magistrates' Court and Family Court",
      "location": "King's Lynn",
      "lat": 52.7517,
      "lon": 0.394,
      "aliases": []
    },
    {
      "id": "kirklees-huddersfield-magistrates-court-and-family-court",
      "name": "Kirklees (Huddersfield) Magistrates' Court and Family Court",
      "location": "Huddersfield",
      "lat": 53.6443,
      "lon": -1.7839,
      "aliases": []
    },
    {
      "id": "leeds-district-magistrates-court-and-family-court",
      "name": "Leeds District Magistrates' Court and Family Court",
      "location": "Leeds",
      "lat": 53.801,
      "lon": -1.5529,
      "aliases": []
    },
    {
      "id": "leyland-family-hearing-centre",
      "name": "Leyland Family Hearing Centre",
      "location": "Leyland",
      "lat": 53.6905,
      "lon": -2.6998,
      "aliases": []
    },
    {
      "id": "llandrindod-wells-magistrates-and-family-court",
      "name": "Llandrindod Wells Magistrates' and Family Court",
      "location": "Llandrindod Wells",
      "lat": 52.2518,
      "lon": -3.3698,
      "aliases": []
    },
    {
      "id": "milton-keynes-county-court-and-family-court",
      "name": "Milton Keynes County Court and Family Court",
      "location": "Milton Keynes",
      "lat": 52.0412,
      "lon": -0.7654,
      "aliases": []
    },
    {
      "id": "milton-keynes-magistrates-court-and-family-court",
      "name": "Milton Keynes Magistrates' Court and Family Court",
      "location": "Milton Keynes",
      "lat": 52.041,
      "lon": -0.7663,
      "aliases": []
    },
    {
      "id": "north-shields-county-court-and-family-court",
      "name": "North Shields County Court and Family Court",
      "location": "North Shields",
      "lat": 54.9976,
      "lon": -1.4594,
      "aliases": []
    },
    {
      "id": "pontypridd-county-court-and-family-court",
      "name": "Pontypridd County Court and Family Court",
      "location": "Pontypridd",
      "lat": 51.5998,
      "lon": -3.3443,
      "aliases": []
    },
    {
      "id": "reedley-family-hearing-centre",
      "name": "Reedley Family Hearing Centre",
      "location": "Burnley",
      "lat": 53.8181,
      "lon": -2.2347,
      "aliases": []
    },
    {
      "id": "romford-county-court-and-family-court",
      "name": "Romford County Court and Family Court",
      "location": "Romford",
      "lat": 51.5826,
      "lon": 0.1876,
      "aliases": []
    },
    {
      "id": "sevenoaks-magistrates-court-and-family-court",
      "name": "Sevenoaks Magistrates' Court and Family Court",
      "location": "Sevenoaks",
      "lat": 51.2801,
      "lon": 0.1773,
      "aliases": []
    },
    {
      "id": "skipton-county-court-and-family-court",
      "name": "Skipton County Court and Family Court",
      "location": "Skipton",
      "lat": 53.9613,
      "lon": -2.0132,
      "aliases": []
    },
    {
      "id": "south-tyneside-county-court-and-family-court",
      "name": "South Tyneside County Court and Family Court",
      "location": "South Shields",
      "lat": 54.9931,
      "lon": -1.4389,
      "aliases": []
    },
    {
      "id": "southend-county-court-and-family-court",
      "name": "Southend County Court and Family Court",
      "location": "Southend-on-Sea",
      "lat": 51.5437,
      "lon": 0.7097,
      "aliases": []
    },
    {
      "id": "staines-county-court-and-family-court",
      "name": "Staines County Court and Family Court",
      "location": "Staines",
      "lat": 51.4291,
      "lon": -0.4981,
      "aliases": []
    },
    {
      "id": "staines-magistrates-court-and-family-court",
      "name": "Staines Magistrates' Court and Family Court",
      "location": "Staines",
      "lat": 51.4291,
      "lon": -0.4981,
      "aliases": []
    },
    {
      "id": "thanet-county-court-and-family-court",
      "name": "Thanet County Court and Family Court",
      "location": "Margate",
      "lat": 51.3876,
      "lon": 1.3818,
      "aliases": []
    },
    {
      "id": "torquay-and-newton-abbot-county-court-and-family-court",
      "name": "Torquay and Newton Abbot County and Family Court",
      "location": "Torquay",
      "lat": 50.4868,
      "lon": -3.5518,
      "aliases": []
    },
    {
      "id": "uxbridge-county-court-and-family-court",
      "name": "Uxbridge County Court and Family Court",
      "location": "Hayes",
      "lat": 51.5223,
      "lon": -0.4215,
      "aliases": []
    },
    {
      "id": "wakefield-civil-and-family-justice-centre",
      "name": "Wakefield Civil and Family Justice Centre",
      "location": "Wakefield",
      "lat": 53.6833,
      "lon": -1.5062,
      "aliases": []
    },
    {
      "id": "walsall-county-and-family-court",
      "name": "Walsall County and Family Court",
      "location": "Walsall",
      "lat": 52.5848,
      "lon": -1.978,
      "aliases": []
    },
    {
      "id": "watford-county-court-and-family-court",
      "name": "Watford County Court and Family Court",
      "location": "Watford",
      "lat": 51.6535,
      "lon": -0.3945,
      "aliases": []
    },
    {
      "id": "west-london-family-court",
      "name": "West London Family Court",
      "location": "Feltham",
      "lat": 51.4585,
      "lon": -0.4126,
      "aliases": []
    },
    {
      "id": "weston-super-mare-county-court-and-family-court",
      "name": "Weston-Super-Mare County Court and Family Court",
      "location": "Weston-super-Mare",
      "lat": 51.3607,
      "lon": -2.9051,
      "aliases": []
    },
    {
      "id": "yeovil-county-family-and-magistrates-court",
      "name": "Yeovil County, Family and Magistrates' Court",
      "location": "Yeovil",
      "lat": 50.9396,
      "lon": -2.6338,
      "aliases": []
    }
  ]
}
